[ 
	{ "name": "ðŸ“Œ Jose R. Reyes Memorial Center", "lat": 14.614407, "lng": 120.982258, "info": "JX7J+PWJ, Rizal Ave, Santa Cruz, Manila, Metro Manila, Philippines. OPERATING HOURS: M-F, 8 AM - 5 PM. Government Owned. Contact No. 27119491. Services Offered: HIV/STD Testing"},
 	{"name": "ðŸ“Œ San Lazaro Hospital", "lat": 14.6134, "lng": 120.9810, "info": "Quiricada Street, Sta. Cruz, Manila City, 1014, Metro Manila, Philippines. OPERATING HOURS: M-F, 8 AM - 5 PM. Government Owned. Contact No. 0287323777. Services Offered: HIV/STD Testing"},
	{"name": "ðŸ“Œ Manila Social Hygiene Clinic", "lat": 14.613075, "lng": 120.981362, "info": "Alfredo Pio De Roda Memorial Bldg, 208 Quiricada St, Santa Cruz, Manila, 1003 Metro Manila, Philippines. OPERATING HOURS: M-F, 8 AM - 5 PM. Government Owned. Contact No. 09205779074. Services Offered: HIV/STD Testing"},
	{"name": "ðŸ“Œ Philippine General Hospital", "lat": 14.577895, "lng": 120.985642, "info": "HXHP+469, Taft Ave, Ermita, Manila, 1000 Metro Manila, Philippines. OPERATING HOURS: M-F, 8 AM - 5 PM. Government Owned. Contact No. 09396258730. Services Offered: STD Testing"},
	{"name": "ðŸ“Œ Santa Ana Hospital", "lat": 14.583569, "lng": 121.016533, "info": "H2M8+8HQ, New Panaderos, Santa Ana, Manila, Metro Manila, Philippines. OPERATING HOURS: M-F, 8 AM - 5 PM. Government Owned. Contact No. (02) 8516 6151. Services Offered: STD Testing"},
	{"name": "ðŸ“Œ LoveYourself Welcome", "lat": 14.6149244, "lng": 121.0000696, "info": "858 Blumentritt Road corner Remedios Street, Sampaloc, Manila, Philippines. OPERATING HOURS: 12:00 PM - 7:00 PM (CLOSED ON MONDAYS AND TUESDAYS). NGO Company. Contact No. 09672071976. Services Offered: STD Testing"}


]
